[
  {
    "name": "Chennai",
    "lat": 13.0827,
    "lon": 80.2707,
    "distance_km": 677.97
  },
  {
    "name": "Coimbatore",
    "lat": 11.0168,
    "lon": 76.9558,
    "distance_km": 273.85
  },
  {
    "name": "Madurai",
    "lat": 9.9252,
    "lon": 78.1198,
    "distance_km": 87.03
  },
  {
    "name": "Tiruchirappalli",
    "lat": 10.7905,
    "lon": 78.7047,
    "distance_km": 248.78
  },
  {
    "name": "Salem",
    "lat": 11.6643,
    "lon": 78.146,
    "distance_km": 346.49
  },
  {
    "name": "Tirunelveli",
    "lat": 8.7139,
    "lon": 77.7567,
    "distance_km": 117.1
  },
  {
    "name": "Erode",
    "lat": 11.341,
    "lon": 77.7172,
    "distance_km": 292.3
  },
  {
    "name": "Vellore",
    "lat": 12.9165,
    "lon": 79.1325,
    "distance_km": 574.65
  },
  {
    "name": "Thoothukudi",
    "lat": 8.7642,
    "lon": 78.1348,
    "distance_km": 120.77
  },
  {
    "name": "Dindigul",
    "lat": 10.3673,
    "lon": 77.9803,
    "distance_km": 143.22
  },
  {
    "name": "Thanjavur",
    "lat": 10.786,
    "lon": 79.1378,
    "distance_km": 290.61
  },
  {
    "name": "Tiruppur",
    "lat": 11.1085,
    "lon": 77.3411,
    "distance_km": 265.24
  },
  {
    "name": "Ariyalur",
    "lat": 11.1401,
    "lon": 79.0786,
    "distance_km": 326.31
  },
  {
    "name": "Cuddalore",
    "lat": 11.7447,
    "lon": 79.768,
    "distance_km": 465.63
  },
  {
    "name": "Dharmapuri",
    "lat": 12.1067,
    "lon": 78.1582,
    "distance_km": 414.92
  },
  {
    "name": "Kanchipuram",
    "lat": 12.8342,
    "lon": 79.7036,
    "distance_km": 599.83
  },
  {
    "name": "Karur",
    "lat": 10.9577,
    "lon": 78.081,
    "distance_km": 236.39
  },
  {
    "name": "Krishnagiri",
    "lat": 12.5186,
    "lon": 78.2137,
    "distance_km": 479.59
  },
  {
    "name": "Nagapattinam",
    "lat": 10.7656,
    "lon": 79.8429,
    "distance_km": 373.12
  },
  {
    "name": "Namakkal",
    "lat": 11.219,
    "lon": 78.167,
    "distance_km": 278.84
  },
  {
    "name": "Perambalur",
    "lat": 11.241,
    "lon": 78.8777,
    "distance_km": 322.16
  },
  {
    "name": "Pudukkottai",
    "lat": 10.3797,
    "lon": 78.8201,
    "distance_km": 211.78
  },
  {
    "name": "Ramanathapuram",
    "lat": 9.363,
    "lon": 78.8308,
    "distance_km": 159.44
  },
  {
    "name": "Sivaganga",
    "lat": 9.8433,
    "lon": 78.4809,
    "distance_km": 120.24
  },
  {
    "name": "Theni",
    "lat": 10.0104,
    "lon": 77.4768,
    "distance_km": 98.15
  },
  {
    "name": "Thiruvallur",
    "lat": 13.144,
    "lon": 79.912,
    "distance_km": 657.36
  },
  {
    "name": "Thiruvarur",
    "lat": 10.7713,
    "lon": 79.6367,
    "distance_km": 347.52
  },
  {
    "name": "Tiruvannamalai",
    "lat": 12.2253,
    "lon": 79.0747,
    "distance_km": 471.97
  },
  {
    "name": "Viluppuram",
    "lat": 11.9369,
    "lon": 79.4873,
    "distance_km": 463.52
  },
  {
    "name": "Virudhunagar",
    "lat": 9.583,
    "lon": 77.9583,
    "distance_km": 30.73
  },
  {
    "name": "Chengalpattu",
    "lat": 12.6833,
    "lon": 79.9833,
    "distance_km": 602.04
  },
  {
    "name": "Kallakurichi",
    "lat": 11.7381,
    "lon": 78.9609,
    "distance_km": 396.09
  },
  {
    "name": "Mayiladuthurai",
    "lat": 11.1013,
    "lon": 79.6528,
    "distance_km": 381.59
  },
  {
    "name": "Ranipet",
    "lat": 12.9273,
    "lon": 79.3302,
    "distance_km": 587.58
  },
  {
    "name": "Tenkasi",
    "lat": 8.96,
    "lon": 77.3153,
    "distance_km": 108.06
  },
  {
    "name": "The Nilgiris",
    "lat": 11.4,
    "lon": 76.7,
    "distance_km": 344.94
  },
  {
    "name": "Nagercoil",
    "lat": 8.1833,
    "lon": 77.4119,
    "distance_km": 208.17
  },
  {
    "name": "Kanyakumari",
    "lat": 8.0883,
    "lon": 77.5385,
    "distance_km": 218.0
  },
  {
    "name": "Hosur",
    "lat": 12.7351,
    "lon": 77.8296,
    "distance_km": 509.09
  },
  {
    "name": "Sivakasi",
    "lat": 9.465,
    "lon": 77.7978,
    "distance_km": 0.0
  },
  {
    "name": "Pollachi",
    "lat": 10.6573,
    "lon": 77.0107,
    "distance_km": 221.37
  },
  {
    "name": "Kumbakonam",
    "lat": 10.9617,
    "lon": 79.3881,
    "distance_km": 337.11
  },
  {
    "name": "Pattukkottai",
    "lat": 10.4253,
    "lon": 79.314,
    "distance_km": 276.4
  },
  {
    "name": "Ambur",
    "lat": 12.7904,
    "lon": 78.7164,
    "distance_km": 536.35
  },
  {
    "name": "Arakkonam",
    "lat": 13.0845,
    "lon": 79.67,
    "distance_km": 631.78
  },
  {
    "name": "Arani",
    "lat": 12.6699,
    "lon": 79.2856,
    "distance_km": 548.24
  },
  {
    "name": "Aruppukkottai",
    "lat": 9.515,
    "lon": 78.1007,
    "distance_km": 47.15
  },
  {
    "name": "Attur",
    "lat": 11.5963,
    "lon": 78.5986,
    "distance_km": 353.7
  },
  {
    "name": "Avadi",
    "lat": 13.1067,
    "lon": 80.097,
    "distance_km": 666.74
  },
  {
    "name": "Bhavani",
    "lat": 11.4455,
    "lon": 77.6821,
    "distance_km": 308.82
  },
  {
    "name": "Chidambaram",
    "lat": 11.3982,
    "lon": 79.6954,
    "distance_km": 418.29
  },
  {
    "name": "Cumbum",
    "lat": 9.7365,
    "lon": 77.2869,
    "distance_km": 89.08
  },
  {
    "name": "Devakottai",
    "lat": 9.947,
    "lon": 78.8218,
    "distance_km": 174.12
  },
  {
    "name": "Dharapuram",
    "lat": 10.7383,
    "lon": 77.5322,
    "distance_km": 202.35
  },
  {
    "name": "Edappadi",
    "lat": 11.5848,
    "lon": 77.8576,
    "distance_km": 330.12
  },
  {
    "name": "Gobichettipalayam",
    "lat": 11.455,
    "lon": 77.4264,
    "distance_km": 314.96
  },
  {
    "name": "Gudiyatham",
    "lat": 12.946,
    "lon": 78.8738,
    "distance_km": 566.25
  },
  {
    "name": "Karaikudi",
    "lat": 10.0731,
    "lon": 78.7809,
    "distance_km": 178.07
  },
  {
    "name": "Karungal",
    "lat": 8.1381,
    "lon": 77.2327,
    "distance_km": 224.11
  },
  {
    "name": "Katpadi",
    "lat": 12.9709,
    "lon": 79.1381,
    "distance_km": 582.87
  },
  {
    "name": "Kovilpatti",
    "lat": 9.1744,
    "lon": 77.8688,
    "distance_km": 46.53
  },
  {
    "name": "Kulithalai",
    "lat": 10.9357,
    "lon": 78.4187,
    "distance_km": 247.92
  },
  {
    "name": "Mannargudi",
    "lat": 10.6663,
    "lon": 79.4506,
    "distance_km": 314.88
  },
  {
    "name": "Mettupalayam",
    "lat": 11.3056,
    "lon": 76.9349,
    "distance_km": 315.53
  },
  {
    "name": "Mettur",
    "lat": 11.7863,
    "lon": 77.8008,
    "distance_km": 361.36
  },
  {
    "name": "Neyveli",
    "lat": 11.532,
    "lon": 79.4862,
    "distance_km": 412.7
  },
  {
    "name": "Oddanchatram",
    "lat": 10.485,
    "lon": 77.7477,
    "distance_km": 158.97
  },
  {
    "name": "Palani",
    "lat": 10.4503,
    "lon": 77.5209,
    "distance_km": 159.15
  },
  {
    "name": "Panruti",
    "lat": 11.7745,
    "lon": 79.5526,
    "distance_km": 448.71
  },
  {
    "name": "Paramakudi",
    "lat": 9.5484,
    "lon": 78.5899,
    "distance_km": 122.31
  },
  {
    "name": "Perundurai",
    "lat": 11.2709,
    "lon": 77.5837,
    "distance_km": 283.03
  },
  {
    "name": "Poonamallee",
    "lat": 13.0465,
    "lon": 80.0945,
    "distance_km": 658.61
  },
  {
    "name": "Rajapalayam",
    "lat": 9.4526,
    "lon": 77.5535,
    "distance_km": 37.56
  },
  {
    "name": "Rasipuram",
    "lat": 11.4601,
    "lon": 78.1864,
    "distance_km": 316.23
  },
  {
    "name": "Sathyamangalam",
    "lat": 11.5048,
    "lon": 77.2383,
    "distance_km": 328.89
  },
  {
    "name": "Sattur",
    "lat": 9.3543,
    "lon": 77.9189,
    "distance_km": 25.35
  },
  {
    "name": "Sirkali",
    "lat": 11.238,
    "lon": 79.7359,
    "distance_km": 405.29
  },
  {
    "name": "Srivilliputhur",
    "lat": 9.5123,
    "lon": 77.6337,
    "distance_km": 26.25
  },
  {
    "name": "Thiruthuraipoondi",
    "lat": 10.5255,
    "lon": 79.6356,
    "distance_km": 326.55
  },
  {
    "name": "Thiruvaiyaru",
    "lat": 10.8841,
    "lon": 79.1036,
    "distance_km": 298.05
  },
  {
    "name": "Tindivanam",
    "lat": 12.2369,
    "lon": 79.6555,
    "distance_km": 516.58
  },
  {
    "name": "Tiruchengode",
    "lat": 11.3785,
    "lon": 77.8949,
    "distance_km": 298.25
  },
  {
    "name": "Tirukkoyilur",
    "lat": 11.9692,
    "lon": 79.2026,
    "distance_km": 445.12
  },
  {
    "name": "Tirupathur",
    "lat": 12.4953,
    "lon": 78.5678,
    "distance_km": 486.19
  },
  {
    "name": "Udhagamandalam",
    "lat": 11.4102,
    "lon": 76.695,
    "distance_km": 346.7
  },
  {
    "name": "Udumalaipettai",
    "lat": 10.5848,
    "lon": 77.2478,
    "distance_km": 193.64
  },
  {
    "name": "Vandavasi",
    "lat": 12.5043,
    "lon": 79.6056,
    "distance_km": 547.87
  },
  {
    "name": "Vaniyambadi",
    "lat": 12.695,
    "lon": 78.6216,
    "distance_km": 518.33
  },
  {
    "name": "Vikravandi",
    "lat": 12.0369,
    "lon": 79.546,
    "distance_km": 481.43
  },
  {
    "name": "Virudhachalam",
    "lat": 11.5196,
    "lon": 79.3251,
    "distance_km": 396.17
  },
  {
    "name": "Avanashi",
    "lat": 11.1927,
    "lon": 77.2688,
    "distance_km": 280.89
  },
  {
    "name": "Batlagundu",
    "lat": 10.1631,
    "lon": 77.7557,
    "distance_km": 108.87
  },
  {
    "name": "Chengam",
    "lat": 12.3089,
    "lon": 78.7935,
    "distance_km": 468.15
  },
  {
    "name": "Cheyyar",
    "lat": 12.6614,
    "lon": 79.5422,
    "distance_km": 564.45
  },
  {
    "name": "Chinnasalem",
    "lat": 11.6357,
    "lon": 78.8786,
    "distance_km": 376.22
  },
  {
    "name": "Denkanikottai",
    "lat": 12.528,
    "lon": 77.7888,
    "distance_km": 476.83
  },
  {
    "name": "Gingee",
    "lat": 12.2528,
    "lon": 79.4119,
    "distance_km": 499.23
  },
  {
    "name": "Harur",
    "lat": 12.0525,
    "lon": 78.4802,
    "distance_km": 416.1
  },
  {
    "name": "Ilayangudi",
    "lat": 9.6296,
    "lon": 78.6273,
    "distance_km": 129.89
  },
  {
    "name": "Jayankondam",
    "lat": 11.2112,
    "lon": 79.3625,
    "distance_km": 362.37
  },
  {
    "name": "Kadayanallur",
    "lat": 9.0779,
    "lon": 77.3415,
    "distance_km": 92.45
  },
  {
    "name": "Kalpakkam",
    "lat": 12.5123,
    "lon": 80.1532,
    "distance_km": 595.46
  },
  {
    "name": "Kattumannarkoil",
    "lat": 11.2757,
    "lon": 79.5556,
    "distance_km": 389.75
  },
  {
    "name": "Kodaikanal",
    "lat": 10.2381,
    "lon": 77.4892,
    "distance_km": 129.32
  },
  {
    "name": "Kodumudi",
    "lat": 11.0775,
    "lon": 77.8836,
    "distance_km": 251.37
  },
  {
    "name": "Kolathur",
    "lat": 13.0646,
    "lon": 80.2069,
    "distance_km": 670.25
  },
  {
    "name": "Kurinjipadi",
    "lat": 11.5628,
    "lon": 79.5907,
    "distance_km": 426.55
  },
  {
    "name": "Lalgudi",
    "lat": 10.8742,
    "lon": 78.8194,
    "distance_km": 269.49
  },
  {
    "name": "Manachanallur",
    "lat": 10.9107,
    "lon": 78.7013,
    "distance_km": 264.22
  },
  {
    "name": "Manamadurai",
    "lat": 9.6714,
    "lon": 78.471,
    "distance_km": 108.22
  },
  {
    "name": "Maraimalai Nagar",
    "lat": 12.7889,
    "lon": 80.0307,
    "distance_km": 619.71
  },
  {
    "name": "Melur",
    "lat": 10.0324,
    "lon": 78.3393,
    "distance_km": 121.26
  },
  {
    "name": "Modakkurichi",
    "lat": 11.2184,
    "lon": 77.7627,
    "distance_km": 273.01
  },
  {
    "name": "Nannilam",
    "lat": 10.8791,
    "lon": 79.6106,
    "distance_km": 354.42
  },
  {
    "name": "Natham",
    "lat": 10.2252,
    "lon": 78.2297,
    "distance_km": 135.62
  },
  {
    "name": "Needamangalam",
    "lat": 10.774,
    "lon": 79.4149,
    "distance_km": 320.84
  },
  {
    "name": "Orathanadu",
    "lat": 10.6239,
    "lon": 79.2577,
    "distance_km": 287.44
  },
  {
    "name": "Palladam",
    "lat": 10.9917,
    "lon": 77.2863,
    "distance_km": 250.25
  },
  {
    "name": "Pallavaram",
    "lat": 12.968,
    "lon": 80.1503,
    "distance_km": 652.97
  },
  {
    "name": "Papanasam",
    "lat": 10.9269,
    "lon": 79.2706,
    "distance_km": 320.48
  },
  {
    "name": "Pennag slaan",
    "lat": 12.225,
    "lon": 78.0167,
    "distance_km": 430.96
  },
  {
    "name": "Perambur",
    "lat": 13.1129,
    "lon": 80.2336,
    "distance_km": 678.75
  },
  {
    "name": "Periyakulam",
    "lat": 10.1212,
    "lon": 77.5437,
    "distance_km": 109.34
  },
  {
    "name": "Pernampattu",
    "lat": 12.9343,
    "lon": 78.7189,
    "distance_km": 558.09
  },
  {
    "name": "Pochampalli",
    "lat": 12.3366,
    "lon": 78.3674,
    "distance_km": 455.43
  },
  {
    "name": "Ponneri",
    "lat": 13.3378,
    "lon": 80.1949,
    "distance_km": 705.14
  },
  {
    "name": "Pudupattinam",
    "lat": 10.6428,
    "lon": 79.7558,
    "distance_km": 351.7
  },
  {
    "name": "Rameswaram",
    "lat": 9.2876,
    "lon": 79.3129,
    "distance_km": 234.34
  },
  {
    "name": "Sankarankovil",
    "lat": 9.1716,
    "lon": 77.535,
    "distance_km": 60.96
  },
  {
    "name": "Sankari",
    "lat": 11.4763,
    "lon": 77.8689,
    "distance_km": 313.29
  },
  {
    "name": "Shenkottai",
    "lat": 8.9733,
    "lon": 77.2463,
    "distance_km": 114.2
  },
  {
    "name": "Sholinghur",
    "lat": 13.1181,
    "lon": 79.4202,
    "distance_km": 620.26
  },
  {
    "name": "Sriperumbudur",
    "lat": 12.9676,
    "lon": 79.9468,
    "distance_km": 636.36
  },
  {
    "name": "Sulur",
    "lat": 11.0243,
    "lon": 77.1257,
    "distance_km": 263.67
  },
  {
    "name": "Tambaram",
    "lat": 12.9247,
    "lon": 80.1279,
    "distance_km": 645.48
  },
  {
    "name": "Tharangambadi",
    "lat": 11.0294,
    "lon": 79.8543,
    "distance_km": 398.18
  },
  {
    "name": "Thirumangalam",
    "lat": 9.8236,
    "lon": 77.9891,
    "distance_km": 63.07
  },
  {
    "name": "Thiruparankundram",
    "lat": 9.8805,
    "lon": 78.0708,
    "distance_km": 77.06
  },
  {
    "name": "Thiruvidaimarudur",
    "lat": 10.9986,
    "lon": 79.452,
    "distance_km": 348.16
  },
  {
    "name": "Thiruverkadu",
    "lat": 13.0732,
    "lon": 80.1267,
    "distance_km": 664.74
  },
  {
    "name": "Thovalai",
    "lat": 8.2473,
    "lon": 77.5201,
    "distance_km": 194.32
  },
  {
    "name": "Uthangarai",
    "lat": 12.2655,
    "lon": 78.5356,
    "distance_km": 450.31
  },
  {
    "name": "Uthiramerur",
    "lat": 12.6151,
    "lon": 79.7574,
    "distance_km": 574.54
  },
  {
    "name": "Valparai",
    "lat": 10.3269,
    "lon": 76.951,
    "distance_km": 186.73
  },
  {
    "name": "Vedaranyam",
    "lat": 10.3721,
    "lon": 79.8509,
    "distance_km": 345.05
  },
  {
    "name": "Vellakoil",
    "lat": 10.9389,
    "lon": 77.7119,
    "distance_km": 229.82
  },
  {
    "name": "Villupuram",
    "lat": 11.9369,
    "lon": 79.4873,
    "distance_km": 463.52
  },
  {
    "name": "Walajapet",
    "lat": 12.9251,
    "lon": 79.3663,
    "distance_km": 589.48
  },
  {
    "name": "Alangulam",
    "lat": 8.864,
    "lon": 77.4994,
    "distance_km": 104.19
  },
  {
    "name": "Anthiyur",
    "lat": 11.5779,
    "lon": 77.5904,
    "distance_km": 330.45
  },
  {
    "name": "Aranthangi",
    "lat": 10.1692,
    "lon": 79.0619,
    "distance_km": 222.75
  },
  {
    "name": "Avudaiyarkoil",
    "lat": 9.7395,
    "lon": 79.0167,
    "distance_km": 191.91
  },
  {
    "name": "Bodinayakanur",
    "lat": 10.0101,
    "lon": 77.3498,
    "distance_km": 109.2
  },
  {
    "name": "Chennimalai",
    "lat": 11.1638,
    "lon": 77.6041,
    "distance_km": 266.12
  },
  {
    "name": "Chetpet",
    "lat": 12.4652,
    "lon": 79.3479,
    "distance_km": 523.68
  },
  {
    "name": "Chinnamanur",
    "lat": 9.839,
    "lon": 77.3811,
    "distance_km": 86.48
  },
  {
    "name": "Coonoor",
    "lat": 11.353,
    "lon": 76.795,
    "distance_km": 331.6
  },
  {
    "name": "Dharmapuri",
    "lat": 12.1067,
    "lon": 78.1582,
    "distance_km": 414.92
  },
  {
    "name": "Eraniel",
    "lat": 8.2059,
    "lon": 77.3173,
    "distance_km": 209.48
  },
  {
    "name": "Gudalur",
    "lat": 11.5027,
    "lon": 76.4923,
    "distance_km": 374.91
  },
  {
    "name": "Inam Karur",
    "lat": 10.9609,
    "lon": 78.0714,
    "distance_km": 236.61
  },
  {
    "name": "Jolarpet",
    "lat": 12.5706,
    "lon": 78.5734,
    "distance_km": 497.77
  },
  {
    "name": "Kallakurichi",
    "lat": 11.7381,
    "lon": 78.9609,
    "distance_km": 396.09
  },
  {
    "name": "Kangeyam",
    "lat": 10.9982,
    "lon": 77.5609,
    "distance_km": 241.42
  },
  {
    "name": "Kaveripattinam",
    "lat": 12.4209,
    "lon": 78.2188,
    "distance_km": 464.63
  },
  {
    "name": "Kovilpatti",
    "lat": 9.1744,
    "lon": 77.8688,
    "distance_km": 46.53
  },
  {
    "name": "Krishnarayapuram",
    "lat": 10.947,
    "lon": 78.2796,
    "distance_km": 242.23
  },
  {
    "name": "Kumbakkonam",
    "lat": 10.9617,
    "lon": 79.3881,
    "distance_km": 337.11
  },
  {
    "name": "Madathukulam",
    "lat": 10.5587,
    "lon": 77.3627,
    "distance_km": 182.86
  },
  {
    "name": "Madhavaram",
    "lat": 13.1482,
    "lon": 80.2314,
    "distance_km": 683.16
  },
  {
    "name": "Manapparai",
    "lat": 10.6077,
    "lon": 78.4259,
    "distance_km": 202.27
  },
  {
    "name": "Marthandam",
    "lat": 8.3061,
    "lon": 77.2227,
    "distance_km": 200.93
  },
  {
    "name": "Mayiladuthurai",
    "lat": 11.1013,
    "lon": 79.6528,
    "distance_km": 381.59
  },
  {
    "name": "Melvisharam",
    "lat": 12.9337,
    "lon": 79.2726,
    "distance_km": 585.05
  },
  {
    "name": "Musiri",
    "lat": 10.9529,
    "lon": 78.4041,
    "distance_km": 249.56
  },
  {
    "name": "Nallur",
    "lat": 8.8372,
    "lon": 77.3946,
    "distance_km": 115.72
  },
  {
    "name": "Ottapidaram",
    "lat": 8.9133,
    "lon": 78.0244,
    "distance_km": 92.68
  },
  {
    "name": "Pallipalayam",
    "lat": 11.3679,
    "lon": 77.7479,
    "distance_km": 296.33
  },
  {
    "name": "Pattukottai",
    "lat": 10.4253,
    "lon": 79.314,
    "distance_km": 276.4
  },
  {
    "name": "Peravurani",
    "lat": 10.2911,
    "lon": 79.2016,
    "distance_km": 250.78
  },
  {
    "name": "Periyanaickenpalayam",
    "lat": 11.153,
    "lon": 76.9516,
    "distance_km": 293.0
  },
  {
    "name": "Pudukottai",
    "lat": 10.3797,
    "lon": 78.8201,
    "distance_km": 211.78
  },
  {
    "name": "Radhapuram",
    "lat": 8.2611,
    "lon": 77.6754,
    "distance_km": 188.36
  },
  {
    "name": "Ranipet",
    "lat": 12.9273,
    "lon": 79.3302,
    "distance_km": 587.58
  },
  {
    "name": "Sembakkam",
    "lat": 12.9202,
    "lon": 80.1576,
    "distance_km": 647.41
  },
  {
    "name": "Sivagiri",
    "lat": 9.3305,
    "lon": 77.429,
    "distance_km": 60.39
  },
  {
    "name": "Srivaikuntam",
    "lat": 8.6293,
    "lon": 77.9128,
    "distance_km": 131.29
  },
  {
    "name": "Thalavadi",
    "lat": 11.7788,
    "lon": 77.0018,
    "distance_km": 380.23
  },
  {
    "name": "Thandarampattu",
    "lat": 12.1473,
    "lon": 78.9617,
    "distance_km": 453.9
  },
  {
    "name": "Thirukattupalli",
    "lat": 10.8634,
    "lon": 79.2867,
    "distance_km": 315.34
  },
  {
    "name": "Thirunindravur",
    "lat": 13.1218,
    "lon": 80.0336,
    "distance_km": 663.71
  },
  {
    "name": "Thiruvallur",
    "lat": 13.144,
    "lon": 79.912,
    "distance_km": 657.36
  },
  {
    "name": "Thiruvarur",
    "lat": 10.7713,
    "lon": 79.6367,
    "distance_km": 347.52
  },
  {
    "name": "Thiruvottiyur",
    "lat": 13.1582,
    "lon": 80.3003,
    "distance_km": 690.23
  },
  {
    "name": "Thottiyam",
    "lat": 10.9843,
    "lon": 78.5559,
    "distance_km": 263.49
  },
  {
    "name": "Tiruchendur",
    "lat": 8.4962,
    "lon": 78.1348,
    "distance_km": 159.47
  },
  {
    "name": "Tirumullaivoyal",
    "lat": 13.1307,
    "lon": 80.1291,
    "distance_km": 672.49
  },
  {
    "name": "Tiruvethipuram",
    "lat": 12.6686,
    "lon": 79.575,
    "distance_km": 567.82
  },
  {
    "name": "Uthukuli",
    "lat": 11.1683,
    "lon": 77.4519,
    "distance_km": 270.4
  },
  {
    "name": "Vadipatti",
    "lat": 10.0848,
    "lon": 77.9632,
    "distance_km": 99.77
  },
  {
    "name": "Valliyur",
    "lat": 8.3378,
    "lon": 77.6098,
    "distance_km": 177.84
  },
  {
    "name": "Vanur",
    "lat": 12.0234,
    "lon": 79.728,
    "distance_km": 495.74
  },
  {
    "name": "Velampalayam",
    "lat": 11.1497,
    "lon": 77.3176,
    "distance_km": 272.38
  },
  {
    "name": "Vettavalam",
    "lat": 12.1087,
    "lon": 79.2437,
    "distance_km": 467.18
  },
  {
    "name": "Vijayapuri",
    "lat": 11.2585,
    "lon": 77.5009,
    "distance_km": 282.88
  },
  {
    "name": "Virudhunagar",
    "lat": 9.583,
    "lon": 77.9583,
    "distance_km": 30.73
  },
  {
    "name": "Yercaud",
    "lat": 11.7794,
    "lon": 78.2034,
    "distance_km": 365.59
  },
  {
    "name": "Sattur",
    "lat": 9.3543,
    "lon": 77.9189,
    "distance_km": 25.35
  },
  {
    "name": "Srivilliputhur",
    "lat": 9.5123,
    "lon": 77.6337,
    "distance_km": 26.25
  },
  {
    "name": "Rajapalayam",
    "lat": 9.4526,
    "lon": 77.5535,
    "distance_km": 37.56
  },
  {
    "name": "Thiruthangal",
    "lat": 9.4794,
    "lon": 77.8078,
    "distance_km": 2.72
  },
  {
    "name": "Vembakottai",
    "lat": 9.3452,
    "lon": 77.7495,
    "distance_km": 20.07
  },
  {
    "name": "Tirumangalam",
    "lat": 9.8236,
    "lon": 77.9891,
    "distance_km": 63.07
  },
  {
    "name": "Andipatti",
    "lat": 9.9974,
    "lon": 77.417,
    "distance_km": 101.4
  },
  {
    "name": "Cumbum",
    "lat": 9.7365,
    "lon": 77.2869,
    "distance_km": 89.08
  },
  {
    "name": "Tenkasi",
    "lat": 8.96,
    "lon": 77.3153,
    "distance_km": 108.06
  },
  {
    "name": "Aruppukkottai",
    "lat": 9.515,
    "lon": 78.1007,
    "distance_km": 47.15
  },
  {
    "name": "Kariapatti",
    "lat": 9.675,
    "lon": 78.0999,
    "distance_km": 56.74
  },
  {
    "name": "Watrap",
    "lat": 9.6374,
    "lon": 77.6384,
    "distance_km": 36.32
  },
  {
    "name": "Elayirampannai",
    "lat": 9.2683,
    "lon": 77.8333,
    "distance_km": 31.1
  },
  {
    "name": "Mamsapuram",
    "lat": 9.3833,
    "lon": 77.5833,
    "distance_km": 35.31
  },
  {
    "name": "Sivagiri",
    "lat": 9.3305,
    "lon": 77.429,
    "distance_km": 60.39
  },
  {
    "name": "Kadayanallur",
    "lat": 9.0779,
    "lon": 77.3415,
    "distance_km": 92.45
  },
  {
    "name": "Ambasamudram",
    "lat": 8.7107,
    "lon": 77.4519,
    "distance_km": 128.9
  },
  {
    "name": "Periyakulam",
    "lat": 10.1212,
    "lon": 77.5437,
    "distance_km": 109.34
  },
  {
    "name": "Bodinayakanur",
    "lat": 10.0101,
    "lon": 77.3498,
    "distance_km": 109.2
  },
  {
    "name": "Chinnamanur",
    "lat": 9.839,
    "lon": 77.3811,
    "distance_km": 86.48
  },
  {
    "name": "Kovilpatti",
    "lat": 9.1744,
    "lon": 77.8688,
    "distance_km": 46.53
  },
  {
    "name": "Thiruparankundram",
    "lat": 9.8805,
    "lon": 78.0708,
    "distance_km": 77.06
  },
  {
    "name": "Usilampatti",
    "lat": 9.9594,
    "lon": 77.7862,
    "distance_km": 76.99
  },
  {
    "name": "Vadipatti",
    "lat": 10.0848,
    "lon": 77.9632,
    "distance_km": 99.77
  },
  {
    "name": "Melur",
    "lat": 10.0324,
    "lon": 78.3393,
    "distance_km": 121.26
  },
  {
    "name": "Shenkottai",
    "lat": 8.9733,
    "lon": 77.2463,
    "distance_km": 114.2
  },
  {
    "name": "Puliyangudi",
    "lat": 9.1747,
    "lon": 77.3979,
    "distance_km": 76.26
  },
  {
    "name": "Vasudevanallur",
    "lat": 9.2393,
    "lon": 77.4113,
    "distance_km": 68.99
  },
  {
    "name": "Vadapatti",
    "lat": 9.4667,
    "lon": 77.8,
    "distance_km": 0.43
  },
  {
    "name": "Muthalipatti",
    "lat": 9.4638,
    "lon": 77.79,
    "distance_km": 1.21
  },
  {
    "name": "Vilampatti",
    "lat": 9.47,
    "lon": 77.805,
    "distance_km": 1.35
  },
  {
    "name": "Alangulam",
    "lat": 9.46,
    "lon": 77.81,
    "distance_km": 2.03
  },
  {
    "name": "Thayilpatti",
    "lat": 9.455,
    "lon": 77.785,
    "distance_km": 2.51
  },
  {
    "name": "M.Pudupatti",
    "lat": 9.468,
    "lon": 77.795,
    "distance_km": 0.63
  },
  {
    "name": "Alamarathupatti",
    "lat": 9.472,
    "lon": 77.8,
    "distance_km": 1.14
  },
  {
    "name": "Puliparaipatti",
    "lat": 9.465,
    "lon": 77.78,
    "distance_km": 2.73
  },
  {
    "name": "Sengamalapatti",
    "lat": 9.46,
    "lon": 77.775,
    "distance_km": 3.59
  },
  {
    "name": "Meenampatti",
    "lat": 9.475,
    "lon": 77.79,
    "distance_km": 1.96
  },
  {
    "name": "Madathupatti",
    "lat": 9.47,
    "lon": 77.785,
    "distance_km": 2.11
  },
  {
    "name": "Bharathi Nagar",
    "lat": 9.465,
    "lon": 77.805,
    "distance_km": 1.11
  },
  {
    "name": "Kaliappa Nagar",
    "lat": 9.467,
    "lon": 77.798,
    "distance_km": 0.31
  },
  {
    "name": "Senayapuram Colony",
    "lat": 9.463,
    "lon": 77.802,
    "distance_km": 0.72
  },
  {
    "name": "Parasakthi Colony",
    "lat": 9.468,
    "lon": 77.803,
    "distance_km": 0.93
  },
  {
    "name": "Kamarajapuram Colony",
    "lat": 9.466,
    "lon": 77.797,
    "distance_km": 0.2
  },
  {
    "name": "Palaniandavar Colony",
    "lat": 9.464,
    "lon": 77.799,
    "distance_km": 0.24
  },
  {
    "name": "Anaiyur",
    "lat": 9.48,
    "lon": 77.81,
    "distance_km": 2.99
  },
  {
    "name": "Erichchanatham",
    "lat": 9.45,
    "lon": 77.82,
    "distance_km": 4.13
  },
  {
    "name": "Mangalam",
    "lat": 9.485,
    "lon": 77.78,
    "distance_km": 4.14
  },
  {
    "name": "Naranapuram",
    "lat": 9.47,
    "lon": 77.815,
    "distance_km": 2.75
  },
  {
    "name": "Nedungulam",
    "lat": 9.455,
    "lon": 77.77,
    "distance_km": 4.54
  },
  {
    "name": "Sithurajapuram",
    "lat": 9.465,
    "lon": 77.825,
    "distance_km": 4.18
  },
  {
    "name": "Thiruchuli",
    "lat": 9.535,
    "lon": 78.2,
    "distance_km": 62.71
  },
  {
    "name": "A.Mukkulam",
    "lat": 9.46,
    "lon": 77.83,
    "distance_km": 5.01
  },
  {
    "name": "Anaikuttam",
    "lat": 9.475,
    "lon": 77.82,
    "distance_km": 3.75
  },
  {
    "name": "Appanampatti",
    "lat": 9.45,
    "lon": 77.835,
    "distance_km": 6.17
  },
  {
    "name": "Ayyampatti",
    "lat": 9.465,
    "lon": 77.84,
    "distance_km": 6.48
  },
  {
    "name": "Boovanathapuram",
    "lat": 9.47,
    "lon": 77.845,
    "distance_km": 7.29
  },
  {
    "name": "Chatrareddiapatti",
    "lat": 9.455,
    "lon": 77.85,
    "distance_km": 8.17
  },
  {
    "name": "Duraisamypuram",
    "lat": 9.46,
    "lon": 77.855,
    "distance_km": 8.82
  },
  {
    "name": "Erumaankulam",
    "lat": 9.465,
    "lon": 77.86,
    "distance_km": 9.55
  },
  {
    "name": "Injar",
    "lat": 9.47,
    "lon": 77.865,
    "distance_km": 10.35
  },
  {
    "name": "Kallamanaickenpatti",
    "lat": 9.475,
    "lon": 77.87,
    "distance_km": 11.2
  },
  {
    "name": "Kottaiyur",
    "lat": 9.48,
    "lon": 77.875,
    "distance_km": 12.08
  },
  {
    "name": "Krishnaperi",
    "lat": 9.485,
    "lon": 77.88,
    "distance_km": 13.0
  },
  {
    "name": "Kundampatti",
    "lat": 9.49,
    "lon": 77.885,
    "distance_km": 13.94
  },
  {
    "name": "Mallipudur",
    "lat": 9.495,
    "lon": 77.89,
    "distance_km": 14.91
  },
  {
    "name": "Maraneri",
    "lat": 9.5,
    "lon": 77.895,
    "distance_km": 15.89
  },
  {
    "name": "Melachinniahpuram",
    "lat": 9.505,
    "lon": 77.9,
    "distance_km": 16.88
  },
  {
    "name": "Nallamanaickenpatti",
    "lat": 9.51,
    "lon": 77.905,
    "distance_km": 17.89
  },
  {
    "name": "Nallanchettipatti",
    "lat": 9.515,
    "lon": 77.91,
    "distance_km": 18.9
  },
  {
    "name": "Namaskarittanpatti",
    "lat": 9.52,
    "lon": 77.915,
    "distance_km": 19.93
  },
  {
    "name": "Nellikundanpatti",
    "lat": 9.525,
    "lon": 77.92,
    "distance_km": 20.96
  },
  {
    "name": "Pallapatti",
    "lat": 9.53,
    "lon": 77.925,
    "distance_km": 22.0
  },
  {
    "name": "Panayadipatti",
    "lat": 9.535,
    "lon": 77.93,
    "distance_km": 23.04
  },
  {
    "name": "Panjampatti",
    "lat": 9.54,
    "lon": 77.935,
    "distance_km": 24.08
  },
  {
    "name": "Pernaickenpatti",
    "lat": 9.545,
    "lon": 77.94,
    "distance_km": 25.13
  },
  {
    "name": "Pudupatti",
    "lat": 9.55,
    "lon": 77.945,
    "distance_km": 26.19
  },
  {
    "name": "Saminatham",
    "lat": 9.555,
    "lon": 77.95,
    "distance_km": 27.25
  },
  {
    "name": "Seithur",
    "lat": 9.56,
    "lon": 77.955,
    "distance_km": 28.31
  },
  {
    "name": "Sengundrapuram",
    "lat": 9.565,
    "lon": 77.96,
    "distance_km": 29.37
  },
  {
    "name": "Sundarapandiam",
    "lat": 9.57,
    "lon": 77.965,
    "distance_km": 30.43
  },
  {
    "name": "Thailakulam",
    "lat": 9.575,
    "lon": 77.97,
    "distance_km": 31.5
  },
  {
    "name": "Vachchakarapatti",
    "lat": 9.58,
    "lon": 77.975,
    "distance_km": 32.57
  },
  {
    "name": "Vadamalaikurichi",
    "lat": 9.585,
    "lon": 77.98,
    "distance_km": 33.64
  },
  {
    "name": "Vadi",
    "lat": 9.59,
    "lon": 77.985,
    "distance_km": 34.71
  },
  {
    "name": "Vanniampatti",
    "lat": 9.595,
    "lon": 77.99,
    "distance_km": 35.78
  },
  {
    "name": "Vellur",
    "lat": 9.6,
    "lon": 77.995,
    "distance_km": 36.85
  },
  {
    "name": "Vijarangam",
    "lat": 9.605,
    "lon": 78.0,
    "distance_km": 37.93
  },
  {
    "name": "Viswanatham",
    "lat": 9.61,
    "lon": 78.005,
    "distance_km": 39.0
  },
  {
    "name": "Zamin Kollankondan",
    "lat": 9.615,
    "lon": 78.01,
    "distance_km": 40.08
  },
  {
    "name": "Ayyankollankondan",
    "lat": 9.62,
    "lon": 78.015,
    "distance_km": 41.16
  },
  {
    "name": "Chinnakamanpatti",
    "lat": 9.625,
    "lon": 78.02,
    "distance_km": 42.24
  },
  {
    "name": "Elumalai",
    "lat": 9.63,
    "lon": 78.025,
    "distance_km": 43.32
  },
  {
    "name": "Kalligudi",
    "lat": 9.635,
    "lon": 78.03,
    "distance_km": 44.4
  },
  {
    "name": "Karisalkulam",
    "lat": 9.64,
    "lon": 78.035,
    "distance_km": 45.48
  },
  {
    "name": "Kondayampatti",
    "lat": 9.645,
    "lon": 78.04,
    "distance_km": 46.56
  }
]